[
  {
    "name": "Elsewhere Professional Unisex Salon",
    "address": "(308) Beauty Parlour Beauty Parlour KD Complex 100, 60 Feet Road, opp. Baldev Petrol Pump",
    "phone": "0164 509 0245",
    "website": "https://www.facebook.com/elsewheresalonnspa/",
    "rating": "4.8",
    "reviewCount": "308",
    "hours": "Closed ⋅ Opens 7 am Sat",
    "type": "",
    "bookingLink": "",
    "reviewSnippet": "On-site services",
    "link": "https://www.google.com/maps/place/Elsewhere+Professional+Unisex+Salon/data=!4m7!3m6!1s0x391732bab8384e31:0xe517c90a969297e7!8m2!3d30.215068!4d74.954649!16s%2Fg%2F11f5489p5k!19sChIJMU44uLoyFzkR55eSlgrJF-U?authuser=0&hl=en&rclk=1"
  },
  {
    "name": "Greek Salon (Hair Matters A Family Salon)",
    "address": "(938) Make-up artist Make-up artist 100 Feet Rd, near Dr Maheshwari skin hospital",
    "phone": "078376 03900",
    "website": "http://www.greeksalon.com/",
    "rating": "4.7",
    "reviewCount": "938",
    "hours": "Closed ⋅ Opens 9 am Sat",
    "type": "",
    "bookingLink": "",
    "reviewSnippet": "On-site services",
    "link": "https://www.google.com/maps/place/Greek+Salon+%28Hair+Matters+A+Family+Salon%29/data=!4m7!3m6!1s0x391732ba4dd8a41f:0xce8601edf92c1fbd!8m2!3d30.2149227!4d74.9527659!16s%2Fg%2F1tdzv30t!19sChIJH6TYTboyFzkRvR8s-e0Bhs4?authuser=0&hl=en&rclk=1"
  },
  {
    "name": "Lakme Salon Mall Road",
    "address": "(4,008) Beauty Parlour Beauty Parlour Shop No, 2089, Mall Road, near Mochi Shoes",
    "phone": "099144 37645",
    "website": "https://www.lakmesalon.in/",
    "rating": "4.9",
    "reviewCount": "4,008",
    "hours": "Closed ⋅ Opens 9 am Sat",
    "type": "",
    "bookingLink": "",
    "reviewSnippet": "\"Great experience, fabulous staff, neat and clean salon.\"",
    "link": "https://www.google.com/maps/place/Lakme+Salon+Mall+Road/data=!4m7!3m6!1s0x3917329a635b1a13:0x1ccd1ff099a79d3d!8m2!3d30.2125575!4d74.942014!16s%2Fg%2F1tdg655y!19sChIJExpbY5oyFzkRPZ2nmfAfzRw?authuser=0&hl=en&rclk=1"
  },
  {
    "name": "Look & Style Hair/Beauty/Makeup/Nails Unisex Professional Salon",
    "address": "(1,749) Beauty Parlour Beauty Parlour",
    "phone": "099888 01461",
    "website": "https://looksandstylesbti.com/",
    "rating": "4.9",
    "reviewCount": "1,749",
    "hours": "Closed ⋅ Opens 9 am Sat",
    "type": "",
    "bookingLink": "",
    "reviewSnippet": "\"The salon a relaxing atmosphere, is very clean and modern.\"",
    "link": "https://www.google.com/maps/place/Look+%26+Style+Hair%2FBeauty%2FMakeup%2FNails+Unisex+Professional+Salon/data=!4m7!3m6!1s0x3917332a29fa3da1:0x58a0505936ac78b6!8m2!3d30.2132492!4d74.9614249!16s%2Fg%2F11t2cgglmn!19sChIJoT36KSozFzkRtnisNllQoFg?authuser=0&hl=en&rclk=1"
  },
  {
    "name": "Lakme Salon",
    "address": "(5,128) Beauty Parlour Beauty Parlour 100 Feet Rd, adjoining SBI Bank & Brar Hospital, near Maheshwari Chownk",
    "phone": "088720 98888",
    "website": "https://salons.lakmesalon.in/lakme-salon-the-mall-bathinda-beauty-parlour-malviya-nagar-bathinda-349791/Home",
    "rating": "4.9",
    "reviewCount": "5,128",
    "hours": "Closed ⋅ Opens 10 am Sat",
    "type": "",
    "bookingLink": "",
    "reviewSnippet": "Online classes",
    "link": "https://www.google.com/maps/place/Lakme+Salon/data=!4m7!3m6!1s0x391732bafcdbe4a3:0xe6d5f7219efc6361!8m2!3d30.2163383!4d74.9533351!16s%2Fg%2F11mxdjhyk6!19sChIJo-Tb_LoyFzkRYWP8niH31eY?authuser=0&hl=en&rclk=1"
  }
]