[
  {
    "name": "SB Beauty Salon verka (only for ladies)",
    "address": "(172) Beauty Parlour Beauty Parlour near PNB Bank",
    "phone": "085917 18426",
    "website": "https://www.instagram.com/sb_salon_asr?igsh=ZzI4NmZ3bXd4amU5",
    "rating": "4.9",
    "reviewCount": "172",
    "hours": "Closed ‚ãÖ Opens 9‚ÄØam Sat",
    "type": "",
    "bookingLink": "",
    "reviewSnippet": "\"The ambiance was relaxing and haircut turned out exactly how I wanted.\"",
    "link": "https://www.google.com/maps/place/SB+Beauty+Salon+verka+%28only+for+ladies%29/data=!4m7!3m6!1s0x3919632cfe8e0f3d:0xfc72dc75d1552ff3!8m2!3d31.6658853!4d74.9353959!16s%2Fg%2F11s3z1jyms!19sChIJPQ-O_ixjGTkR8y9V0XXccvw?authuser=0&hl=en&rclk=1"
  },
  {
    "name": "Attri Brother salon",
    "address": "(64) Beauty Parlour Beauty Parlour MW5J+J86",
    "phone": "099158 43736",
    "website": "",
    "rating": "4.4",
    "reviewCount": "64",
    "hours": "Closed ‚ãÖ Opens 8‚ÄØam Sat",
    "type": "",
    "bookingLink": "",
    "reviewSnippet": "\"Best and good saloon in verka villageüëçüëç\"",
    "link": "https://www.google.com/maps/place/Attri+Brother+salon/data=!4m7!3m6!1s0x391962e7b9511c6b:0xa4522030fa7390b0!8m2!3d31.6590441!4d74.9307608!16s%2Fg%2F11c5rmjnmn!19sChIJaxxRuediGTkRsJBz-jAgUqQ?authuser=0&hl=en&rclk=1"
  },
  {
    "name": "Megha beauty salon",
    "address": "(2) Beauty Parlour Beauty Parlour 13/141",
    "phone": "",
    "website": "",
    "rating": "5.0",
    "reviewCount": "2",
    "hours": "",
    "type": "",
    "bookingLink": "",
    "reviewSnippet": "\"Best beauty salon in verka\"",
    "link": "https://www.google.com/maps/place/Megha+beauty+salon/data=!4m7!3m6!1s0x3919630003fd5dff:0xefc6009353a9a7ce!8m2!3d31.6635014!4d74.9277675!16s%2Fg%2F11ydr5d2wp!19sChIJ_139AwBjGTkRzqepU5MAxu8?authuser=0&hl=en&rclk=1"
  },
  {
    "name": "Salon at home",
    "address": "(68) Beauty Parlour Beauty Parlour Ek noor, noor Avenue, Batala Rd Closes soon",
    "phone": "099882 14976",
    "website": "https://salonathomes.wordpress.com/",
    "rating": "4.9",
    "reviewCount": "68",
    "hours": "",
    "type": "",
    "bookingLink": "",
    "reviewSnippet": "On-site services",
    "link": "https://www.google.com/maps/place/Salon+at+home/data=!4m7!3m6!1s0x391963b1898dfc55:0x6cdcec07e21233c1!8m2!3d31.6669539!4d74.9420864!16s%2Fg%2F11f8hr2dh9!19sChIJVfyNibFjGTkRwTMS4gfs3Gw?authuser=0&hl=en&rclk=1"
  },
  {
    "name": "Haus Of Glamour",
    "address": "(15) Beauty Parlour Beauty Parlour Shop No. 4, Bikka Chiniya Complex, Batala Rd",
    "phone": "090417 23185",
    "website": "",
    "rating": "4.9",
    "reviewCount": "15",
    "hours": "Closed ‚ãÖ Opens 10‚ÄØam Sat",
    "type": "",
    "bookingLink": "",
    "reviewSnippet": "\"Hair spa was the best .\"",
    "link": "https://www.google.com/maps/place/Haus+Of+Glamour/data=!4m7!3m6!1s0x391963b7f1f99edb:0xb66b70da4afe22e4!8m2!3d31.6689805!4d74.9386821!16s%2Fg%2F11vwxznb_g!19sChIJ25758bdjGTkR5CL-Stpwa7Y?authuser=0&hl=en&rclk=1"
  },
  {
    "name": "Black Orchid Saloon",
    "address": "(16) Hairdresser Hairdresser Best barber shop, Professional hair dresser, Batala Rd",
    "phone": "070092 24139",
    "website": "",
    "rating": "4.4",
    "reviewCount": "16",
    "hours": "Closed ‚ãÖ Opens 9‚ÄØam Sat",
    "type": "",
    "bookingLink": "",
    "reviewSnippet": "\"NYC work good price.\"",
    "link": "https://www.google.com/maps/place/Black+Orchid+Saloon/data=!4m7!3m6!1s0x391963c7529b8027:0xe9159a9aa3dfd295!8m2!3d31.6661345!4d74.9342458!16s%2Fg%2F11q335frpw!19sChIJJ4CbUsdjGTkRldLfo5qaFek?authuser=0&hl=en&rclk=1"
  },
  {
    "name": "Jenet Unisex Salon",
    "address": "(8) Hairdresser Hairdresser THIRATH NAGAR, Batala Rd, near PETROL PUMP",
    "phone": "098779 74542",
    "website": "",
    "rating": "2.0",
    "reviewCount": "8",
    "hours": "",
    "type": "",
    "bookingLink": "",
    "reviewSnippet": "",
    "link": "https://www.google.com/maps/place/Jenet+Unisex+Salon/data=!4m7!3m6!1s0x391963a2089904e7:0xf3dc9614eaa544d8!8m2!3d31.6554627!4d74.917715!16s%2Fg%2F11kvnsvr_y!19sChIJ5wSZCKJjGTkR2ESl6hSW3PM?authuser=0&hl=en&rclk=1"
  },
  {
    "name": "Sham Hair Saloon",
    "address": "(1) Hair salon Hair salon Station Rd",
    "phone": "073557 25352",
    "website": "",
    "rating": "5.0",
    "reviewCount": "1",
    "hours": "",
    "type": "",
    "bookingLink": "",
    "reviewSnippet": "",
    "link": "https://www.google.com/maps/place/Sham+Hair+Saloon/data=!4m7!3m6!1s0x3919632c881ac16b:0x49e60017b5d359bd!8m2!3d31.6421265!4d74.8760741!16s%2Fg%2F11wbzcn3bk!19sChIJa8EaiCxjGTkRvVnTtRcA5kk?authuser=0&hl=en&rclk=1"
  },
  {
    "name": "Laavish Salon & Academy",
    "address": "(176) Beauty Parlour Beauty Parlour Plot No-5-A,27 Feet Road, Majitha Rd",
    "phone": "098729 34346",
    "website": "https://instagram.com/laavish_salon_and_academy?igshid=1whtvl8q4bbl7",
    "rating": "4.9",
    "reviewCount": "176",
    "hours": "Closed ‚ãÖ Opens 10‚ÄØam Sat",
    "type": "",
    "bookingLink": "",
    "reviewSnippet": "\"Best salon in Amritsar best services in reasonabe price Guyz pls visit\"",
    "link": "https://www.google.com/maps/place/Laavish+Salon+%26+Academy/data=!4m7!3m6!1s0x391963ddb6bba3a9:0xfc5ff9e97462c9cc!8m2!3d31.6643659!4d74.9012482!16s%2Fg%2F11h7q4kvtm!19sChIJqaO7tt1jGTkRzMlidOn5X_w?authuser=0&hl=en&rclk=1"
  },
  {
    "name": "Harbal Beauty Parlour",
    "address": "(3) Beauty Parlour Beauty Parlour MW8P+WJ6, Batala Rd, Near Veterinary Hospital",
    "phone": "098156 27787",
    "website": "",
    "rating": "5.0",
    "reviewCount": "3",
    "hours": "Closed ‚ãÖ Opens 10‚ÄØam Sat",
    "type": "",
    "bookingLink": "",
    "reviewSnippet": "",
    "link": "https://www.google.com/maps/place/Harbal+Beauty+Parlour/data=!4m7!3m6!1s0x391962ee4444ad8d:0x55354504ecfe9d0!8m2!3d31.667289!4d74.936524!16s%2Fg%2F11b6gg54tz!19sChIJja1ERO5iGTkR0OnPTlBUUwU?authuser=0&hl=en&rclk=1"
  },
  {
    "name": "Taqdeer Salon & beauty parlour",
    "address": "(2) Beauty Parlour Beauty Parlour",
    "phone": "",
    "website": "",
    "rating": "5.0",
    "reviewCount": "2",
    "hours": "Closed ‚ãÖ Opens 9‚ÄØam Sat",
    "type": "",
    "bookingLink": "",
    "reviewSnippet": "\"Very good Taqdeer beauty parlour and salon\"",
    "link": "https://www.google.com/maps/place/Taqdeer+Salon+%26+beauty+parlour/data=!4m7!3m6!1s0x391963005768cf1b:0xfe5fdd1489058c6a!8m2!3d31.6583214!4d74.9299399!16s%2Fg%2F11x7jxzh2l!19sChIJG89oVwBjGTkRaowFiRTdX_4?authuser=0&hl=en&rclk=1"
  },
  {
    "name": "M Plus Saloon",
    "address": "(1) Hair salon Hair salon Main Bazaar",
    "phone": "098030 12575",
    "website": "",
    "rating": "5.0",
    "reviewCount": "1",
    "hours": "",
    "type": "",
    "bookingLink": "",
    "reviewSnippet": "",
    "link": "https://www.google.com/maps/place/M+Plus+Saloon/data=!4m7!3m6!1s0x391963c4f7afb695:0x9b289ab8ec226b17!8m2!3d31.6593141!4d74.9306014!16s%2Fg%2F11s4j_n8hk!19sChIJlbav98RjGTkRF2si7LiaKJs?authuser=0&hl=en&rclk=1"
  },
  {
    "name": "Glow Studio Unisex Salon & Academy",
    "address": "(1) Hairdresser Hairdresser HP Petroleum Street, Glow Studio Eknoor Avenue Eknoor Avenue, Batala Rd",
    "phone": "081469 08332",
    "website": "",
    "rating": "5.0",
    "reviewCount": "1",
    "hours": "Closed ‚ãÖ Opens 9‚ÄØam Sat",
    "type": "",
    "bookingLink": "",
    "reviewSnippet": "",
    "link": "https://www.google.com/maps/place/Glow+Studio+Unisex+Salon+%26+Academy/data=!4m7!3m6!1s0x3919639f3999172b:0xbc78bf5c7808b278!8m2!3d31.666067!4d74.941939!16s%2Fg%2F11wnf8rqzl!19sChIJKxeZOZ9jGTkReLIIeFy_eLw?authuser=0&hl=en&rclk=1"
  },
  {
    "name": "BridalVilla Salon",
    "address": "(2,821) Beauty Parlour Beauty Parlour #367, Green Avenue, backside Golden Sarovar Portico Hotel",
    "phone": "075083 78602",
    "website": "https://www.facebook.com/bridalvillasalon/",
    "rating": "4.9",
    "reviewCount": "2,821",
    "hours": "Closed ‚ãÖ Opens 10:30‚ÄØam Sat",
    "type": "",
    "bookingLink": "",
    "reviewSnippet": "\"I love the way they do clean hairdos in the most affordable rates.\"",
    "link": "https://www.google.com/maps/place/BridalVilla+Salon/data=!4m7!3m6!1s0x391965f8db2284d3:0x1e5776bc080534f1!8m2!3d31.6475317!4d74.862297!16s%2Fg%2F11g1mwd7d2!19sChIJ04Qi2_hlGTkR8TQFCLx2Vx4?authuser=0&hl=en&rclk=1"
  },
  {
    "name": "Anoop's Creative Touch Salon",
    "address": "(64) Beauty Parlour Beauty Parlour Main Market, B6, near Verka Booth, opp. Park",
    "phone": "099886 72858",
    "website": "",
    "rating": "4.4",
    "reviewCount": "64",
    "hours": "Closed ‚ãÖ Opens 9‚ÄØam Sat",
    "type": "",
    "bookingLink": "",
    "reviewSnippet": "\"Personalised guidance by Anoop on hair keep and very generous staff.\"",
    "link": "https://www.google.com/maps/place/Anoop%27s+Creative+Touch+Salon/data=!4m7!3m6!1s0x391964a2553e1183:0xd58cdf298f9ca4c8!8m2!3d31.6471103!4d74.8653088!16s%2Fg%2F11ggs8sw5g!19sChIJgxE-VaJkGTkRyKScjynfjNU?authuser=0&hl=en&rclk=1"
  },
  {
    "name": "Tn Vanity Room salon",
    "address": "(10) Beauty Parlour Beauty Parlour Gate no 2, opp. verka milk booth",
    "phone": "",
    "website": "",
    "rating": "2.7",
    "reviewCount": "10",
    "hours": "Closed ‚ãÖ Opens 10:30‚ÄØam Sat",
    "type": "",
    "bookingLink": "",
    "reviewSnippet": "\"Like the place ambience and services\"",
    "link": "https://www.google.com/maps/place/Tn+Vanity+Room+salon/data=!4m7!3m6!1s0x391965abfbd8698b:0xc299f4129ce151e7!8m2!3d31.6452829!4d74.8637884!16s%2Fg%2F11lsl_nzmh!19sChIJi2nY-6tlGTkR51HhnBL0mcI?authuser=0&hl=en&rclk=1"
  },
  {
    "name": "Hair crew luxury salon",
    "address": "(53) Hairdresser Hairdresser Sco 13, canal colony, Mcleod Road",
    "phone": "",
    "website": "",
    "rating": "5.0",
    "reviewCount": "53",
    "hours": "Closed ‚ãÖ Opens 10‚ÄØam Sat",
    "type": "",
    "bookingLink": "",
    "reviewSnippet": "\"The atmosphere is clean and relaxing, and they use high-quality products.\"",
    "link": "https://www.google.com/maps/place/Hair+crew+luxury+salon/data=!4m7!3m6!1s0x391965660ad9fdb9:0xbe807a3f51b95029!8m2!3d31.6413169!4d74.8550877!16s%2Fg%2F11yffyzlg6!19sChIJuf3ZCmZlGTkRKVC5UT96gL4?authuser=0&hl=en&rclk=1"
  },
  {
    "name": "Headmasters Amritsar | Best Salon In Amritsar | Best Makeup Artist In Amritsar",
    "address": "(1,704) Beauty Parlour Beauty Parlour SCO-56, adjoining Amway Store",
    "phone": "081810 82200",
    "website": "https://headmasters.in/salon/best-salon-in-amritsar-headmasters/",
    "rating": "4.7",
    "reviewCount": "1,704",
    "hours": "Closed ‚ãÖ Opens 10‚ÄØam Sat",
    "type": "",
    "bookingLink": "",
    "reviewSnippet": "\"The salon was clean, well-organized, and had a relaxing atmosphere.\"",
    "link": "https://www.google.com/maps/place/Headmasters+Amritsar+%7C+Best+Salon+In+Amritsar+%7C+Best+Makeup+Artist+In+Amritsar/data=!4m7!3m6!1s0x39196507ae74fc71:0x30f0227fccc52c3b!8m2!3d31.6522934!4d74.8615907!16s%2Fg%2F11h_glbkhv!19sChIJcfx0rgdlGTkROyzFzH8i8DA?authuser=0&hl=en&rclk=1"
  },
  {
    "name": "Bombshell studio",
    "address": "No reviews Hairdresser Hairdresser near naresh karyana store",
    "phone": "06284 589 334",
    "website": "",
    "rating": "",
    "reviewCount": "",
    "hours": "Closed ‚ãÖ Opens 7‚ÄØam Sat",
    "type": "",
    "bookingLink": "",
    "reviewSnippet": "",
    "link": "https://www.google.com/maps/place/Bombshell+studio/data=!4m7!3m6!1s0x3919630034435f85:0x46b75e527b9f6e10!8m2!3d31.6631127!4d74.9280954!16s%2Fg%2F11wbz9cfqv!19sChIJhV9DNABjGTkREG6fe1Jet0Y?authuser=0&hl=en&rclk=1"
  },
  {
    "name": "meenakshi",
    "address": "(1) Beauty Parlour Beauty Parlour 73 grand estate oppo Sharma dhaba asr, Batala Rd",
    "phone": "",
    "website": "",
    "rating": "5.0",
    "reviewCount": "1",
    "hours": "",
    "type": "",
    "bookingLink": "",
    "reviewSnippet": "\"Amazing service üëç\nüòäüëå\"",
    "link": "https://www.google.com/maps/place/meenakshi/data=!4m7!3m6!1s0x391963c9dfa4044b:0x1bcbd09ef4f5d0f3!8m2!3d31.6554627!4d74.917715!16s%2Fg%2F11q2qq2lqc!19sChIJSwSk38ljGTkR89D19J7Qyxs?authuser=0&hl=en&rclk=1"
  },
  {
    "name": "A Vone Salon",
    "address": "No reviews Hair salon Hair salon",
    "phone": "081463 55451",
    "website": "",
    "rating": "",
    "reviewCount": "",
    "hours": "",
    "type": "",
    "bookingLink": "",
    "reviewSnippet": "",
    "link": "https://www.google.com/maps/place/A+Vone+Salon/data=!4m7!3m6!1s0x3919630b755e428d:0x94675a8b5f7211d!8m2!3d31.6628898!4d74.9252019!16s%2Fg%2F11w9z9mjrw!19sChIJjUJedQtjGTkRHSH3tah1Rgk?authuser=0&hl=en&rclk=1"
  },
  {
    "name": "Mehak Beauty Salon",
    "address": "(10) Beauty Parlour Beauty Parlour opposite Income tax office",
    "phone": "0183 222 3832",
    "website": "",
    "rating": "3.7",
    "reviewCount": "10",
    "hours": "Closed ‚ãÖ Opens 10‚ÄØam Sat",
    "type": "",
    "bookingLink": "",
    "reviewSnippet": "\"Excellent service\"",
    "link": "https://www.google.com/maps/place/Mehak+Beauty+Salon/data=!4m7!3m6!1s0x391964a44440c3fd:0xa46e5a72ebdcb277!8m2!3d31.6427636!4d74.8565614!16s%2Fg%2F11b6d1m4gk!19sChIJ_cNARKRkGTkRd7Lc63JabqQ?authuser=0&hl=en&rclk=1"
  },
  {
    "name": "Colour Lounge Ranjit Avn Luxe Salon Best Salon In Amritsar Hair Skin Makeup Nails Laser Academy",
    "address": "(1,552) Beauty Parlour Beauty Parlour Avenue, District Shopping Centre, Sco 39, next to Astoria food pavillion",
    "phone": "092568 11117",
    "website": "https://www.instagram.com/colourlounge_salon/?hl=en",
    "rating": "4.8",
    "reviewCount": "1,552",
    "hours": "Closed ‚ãÖ Opens 9:30‚ÄØam Sat",
    "type": "",
    "bookingLink": "",
    "reviewSnippet": "On-site services",
    "link": "https://www.google.com/maps/place/Colour+Lounge+Ranjit+Avn+Luxe+Salon+Best+Salon+In+Amritsar+Hair+Skin+Makeup+Nails+Laser+Academy/data=!4m7!3m6!1s0x3919649063afffff:0xdb9d47ded4174043!8m2!3d31.6523043!4d74.8647387!16s%2Fg%2F11b75gdqvl!19sChIJ__-vY5BkGTkRQ0AX1N5Hnds?authuser=0&hl=en&rclk=1"
  },
  {
    "name": "Hundal Boutique & Parlour",
    "address": "(5) Beauty Parlour Beauty Parlour MW9Q+WX6, Batala Rd, Near Petrol Pump",
    "phone": "082849 14806",
    "website": "",
    "rating": "5.0",
    "reviewCount": "5",
    "hours": "Closed ‚ãÖ Opens 7‚ÄØam Sat",
    "type": "",
    "bookingLink": "",
    "reviewSnippet": "\"Fabulous work ‚ò∫Ô∏è\"",
    "link": "https://www.google.com/maps/place/Hundal+Boutique+%26+Parlour/data=!4m7!3m6!1s0x391962f27492e729:0xd006a01d0d1f231b!8m2!3d31.6697799!4d74.9398967!16s%2Fg%2F11b6gdc4w9!19sChIJKeeSdPJiGTkRGyMfDR2gBtA?authuser=0&hl=en&rclk=1"
  },
  {
    "name": "The Beauty Crown",
    "address": "(491) Beauty Parlour Beauty Parlour Shop no 51-A",
    "phone": "0183 500 9955",
    "website": "",
    "rating": "4.8",
    "reviewCount": "491",
    "hours": "Closed ‚ãÖ Opens 9:30‚ÄØam Sat",
    "type": "",
    "bookingLink": "",
    "reviewSnippet": "\"Great service- haircut and nails\"",
    "link": "https://www.google.com/maps/place/The+Beauty+Crown/data=!4m7!3m6!1s0x391964b00cb8a02f:0xfa29880aa04f9b1!8m2!3d31.6382583!4d74.8614494!16s%2Fg%2F11bw3d4h2y!19sChIJL6C4DLBkGTkRsfkEqoCYog8?authuser=0&hl=en&rclk=1"
  },
  {
    "name": "Hair Groom salon academy",
    "address": "(183) Hair salon Hair salon opp. Uppal Hospital",
    "phone": "081467 20147",
    "website": "https://www.facebook.com/HairLoungeSaloon/",
    "rating": "4.8",
    "reviewCount": "183",
    "hours": "Closed ‚ãÖ Opens 9:30‚ÄØam Sat",
    "type": "",
    "bookingLink": "",
    "reviewSnippet": "\"Hair lounge staff is well trained nd friendly.\"",
    "link": "https://www.google.com/maps/place/Hair+Groom+salon+academy/data=!4m7!3m6!1s0x39196551deb8b5a3:0xa919d12684a9978b!8m2!3d31.6422325!4d74.859901!16s%2Fg%2F11h4ypd6g8!19sChIJo7W43lFlGTkRi5ephCbRGak?authuser=0&hl=en&rclk=1"
  },
  {
    "name": "Hobibs Unisex Hair & Beauty Studio",
    "address": "(1,588) Beauty Parlour Beauty Parlour 17/9 - 10, Market",
    "phone": "098760 56582",
    "website": "",
    "rating": "4.5",
    "reviewCount": "1,588",
    "hours": "Closed ‚ãÖ Opens 10‚ÄØam Sat",
    "type": "",
    "bookingLink": "",
    "reviewSnippet": "\"He cut my hair and gave me a cute hairstyle to flaunt during my stay here.\"",
    "link": "https://www.google.com/maps/place/Hobibs+Unisex+Hair+%26+Beauty+Studio/data=!4m7!3m6!1s0x391964a4467be54d:0x1e4d1a528032367a!8m2!3d31.64187!4d74.8663893!16s%2Fg%2F124y9ysjq!19sChIJTeV7RqRkGTkRejYygFIaTR4?authuser=0&hl=en&rclk=1"
  },
  {
    "name": "Majestic Beauty Studio",
    "address": "(131) Beauty Parlour Beauty Parlour mohini park opp: khalsa college, near chunni brothers",
    "phone": "084270 14037",
    "website": "",
    "rating": "4.6",
    "reviewCount": "131",
    "hours": "Closed ‚ãÖ Opens 9‚ÄØam Sat",
    "type": "",
    "bookingLink": "",
    "reviewSnippet": "\"Recommended place god price and quality attention!\"",
    "link": "https://www.google.com/maps/place/Majestic+Beauty+Studio/data=!4m7!3m6!1s0x39196580e213f857:0xe88d4fc813e593ec!8m2!3d31.6309104!4d74.8367203!16s%2Fg%2F11hk0cb5nk!19sChIJV_gT4oBlGTkR7JPlE8hPjeg?authuser=0&hl=en&rclk=1"
  },
  {
    "name": "VLCC School of Beauty - Institute in Ranjit Avenue, Amritsar",
    "address": "(1,088) Educational institution Educational institution SCO 28, Second Floor, Taneja Towers, District Shopping Complex, opposite Ajit Hospital",
    "phone": "080 3790 7746",
    "website": "https://institute.vlccinstitute.com/vlcc-institute/beauty-institute-in-amritsar/beauty-institute-in-ranjit-avenue/vlcc-school-of-beauty-in-ranjit-avenue-amritsar--5111ed0b-7ffa-40cc-b1c1-90e923765c2b/home",
    "rating": "4.8",
    "reviewCount": "1,088",
    "hours": "Closed ‚ãÖ Opens 9:30‚ÄØam Sat",
    "type": "",
    "bookingLink": "",
    "reviewSnippet": "On-site services",
    "link": "https://www.google.com/maps/place/VLCC+School+of+Beauty+-+Institute+in+Ranjit+Avenue,+Amritsar/data=!4m7!3m6!1s0x391964983b2cea79:0xcd8d9c0b9cb1c5ed!8m2!3d31.6511103!4d74.8638184!16s%2Fg%2F1tf7qj63!19sChIJeeosO5hkGTkR7cWxnAucjc0?authuser=0&hl=en&rclk=1"
  },
  {
    "name": "HAIR MASTERS AMRITSAR",
    "address": "(354) Beauty Parlour Beauty Parlour 5, Mall Rd",
    "phone": "098728 88478",
    "website": "https://www.hmsalon.org/",
    "rating": "4.4",
    "reviewCount": "354",
    "hours": "Closed ‚ãÖ Opens 10‚ÄØam Sat",
    "type": "",
    "bookingLink": "",
    "reviewSnippet": "\"The salon itself was clean, relaxing, and had a great atmosphere.\"",
    "link": "https://www.google.com/maps/place/HAIR+MASTERS+AMRITSAR/data=!4m7!3m6!1s0x391965064abf2ef9:0x8c7bf896f6acfd5f!8m2!3d31.6425974!4d74.8631082!16s%2Fg%2F11vjcb1mbn!19sChIJ-S6_SgZlGTkRX_2s9pb4e4w?authuser=0&hl=en&rclk=1"
  },
  {
    "name": "THM Salon",
    "address": "(1,480) Beauty Parlour Beauty Parlour JVR8+JJF, 17/1, Albert Road, Kennedy Avenue Market",
    "phone": "070094 58588",
    "website": "http://www.thmsalon.com/",
    "rating": "4.8",
    "reviewCount": "1,480",
    "hours": "Closed ‚ãÖ Opens 10‚ÄØam Sat",
    "type": "",
    "bookingLink": "",
    "reviewSnippet": "\"Had the most exceptional experience for a facial and a haircut.\"",
    "link": "https://www.google.com/maps/place/THM+Salon/data=!4m7!3m6!1s0x391964a44a10c3ed:0x980f87023434c237!8m2!3d31.641517!4d74.866747!16s%2Fg%2F11b6dpl7yz!19sChIJ7cMQSqRkGTkRN8I0NAKHD5g?authuser=0&hl=en&rclk=1"
  },
  {
    "name": "Nagi unisex salon",
    "address": "(158) Hairdresser Hairdresser Nagi unisex salon, 47, Shivaji Park Rd",
    "phone": "098882 11599",
    "website": "",
    "rating": "4.5",
    "reviewCount": "158",
    "hours": "Closed ‚ãÖ Opens 9‚ÄØam Sat",
    "type": "",
    "bookingLink": "",
    "reviewSnippet": "\"Nice to have Hair Saloon with Very budget friendly.\"",
    "link": "https://www.google.com/maps/place/Nagi+unisex+salon/data=!4m7!3m6!1s0x391964baa450ce4b:0xac4799cfdd10536a!8m2!3d31.6384912!4d74.8617313!16s%2Fg%2F11c5srypk6!19sChIJS85QpLpkGTkRalMQ3c-ZR6w?authuser=0&hl=en&rclk=1"
  },
  {
    "name": "Legal Unisex Salon | Best Salon in Amritsar",
    "address": "(55) Beauty Parlour Beauty Parlour 4th floor, Dua Square, SCO-6, near Haveli",
    "phone": "096462 93334",
    "website": "https://legalunisexsalon.com/",
    "rating": "4.7",
    "reviewCount": "55",
    "hours": "Closed ‚ãÖ Opens 10‚ÄØam Sat",
    "type": "",
    "bookingLink": "",
    "reviewSnippet": "On-site services",
    "link": "https://www.google.com/maps/place/Legal+Unisex+Salon+%7C+Best+Salon+in+Amritsar/data=!4m7!3m6!1s0x41c1701d984912d1:0x924defedc89f56ff!8m2!3d31.6561957!4d74.8579289!16s%2Fg%2F11x2yt3ctn!19sChIJ0RJJmB1wwUER_1afyO3vTZI?authuser=0&hl=en&rclk=1"
  },
  {
    "name": "Lakme Salon",
    "address": "(567) Beauty Parlour Beauty Parlour Ground Floor, SGK Tower, 77, Mall Rd, opposite Passport Office",
    "phone": "090560 20022",
    "website": "https://salons.lakmesalon.in/lakme-salon-mall-road-beauty-parlour-mall-road-amritsar-446698/Home?utm_source=locator&utm_medium=googleplaces",
    "rating": "4.9",
    "reviewCount": "567",
    "hours": "Closed ‚ãÖ Opens 10‚ÄØam Sat",
    "type": "",
    "bookingLink": "",
    "reviewSnippet": "\"They really listened to what I wanted and gave me the perfect haircut.\"",
    "link": "https://www.google.com/maps/place/Lakme+Salon/data=!4m7!3m6!1s0x3919655a7bebebc7:0xf65b7615eb45c96!8m2!3d31.642772!4d74.8660225!16s%2Fg%2F11w4c0vw5f!19sChIJx-vre1plGTkRlly0XmG3ZQ8?authuser=0&hl=en&rclk=1"
  },
  {
    "name": "Lakme Salon",
    "address": "(4,036) Beauty Parlour Beauty Parlour No B, 1, near Altec Hospital",
    "phone": "098550 72262",
    "website": "https://salons.lakmesalon.in/lakme-salon-ranjit-avenue-beauty-parlour-ranjit-avenue-amritsar-349819/Home",
    "rating": "4.8",
    "reviewCount": "4,036",
    "hours": "Closed ‚ãÖ Opens 10‚ÄØam Sat",
    "type": "",
    "bookingLink": "",
    "reviewSnippet": "\"Impeccable service, skilled staff, and a pampering atmosphere.\"",
    "link": "https://www.google.com/maps/place/Lakme+Salon/data=!4m7!3m6!1s0x3919648dedb90dc9:0x728a833d4304b53!8m2!3d31.6490497!4d74.8625144!16s%2Fg%2F1vc_nrbk!19sChIJyQ257Y1kGTkRU0sw1DOoKAc?authuser=0&hl=en&rclk=1"
  },
  {
    "name": "Sakhis Masterstroke Salon",
    "address": "(32) Beauty Parlour Beauty Parlour B-3",
    "phone": "088722 00407",
    "website": "",
    "rating": "5.0",
    "reviewCount": "32",
    "hours": "Closed ‚ãÖ Opens 10‚ÄØam Sat",
    "type": "",
    "bookingLink": "",
    "reviewSnippet": "\"Excellent and relaxing services , welcoming and well trained staff .\"",
    "link": "https://www.google.com/maps/place/Sakhis+Masterstroke+Salon/data=!4m7!3m6!1s0x391965555d3841b3:0x649aed82cf19bd61!8m2!3d31.6466243!4d74.8656602!16s%2Fg%2F11h3dd3874!19sChIJs0E4XVVlGTkRYb0Zz4LtmmQ?authuser=0&hl=en&rclk=1"
  },
  {
    "name": "Taured",
    "address": "(7) Beauty Parlour Beauty Parlour MW8H+5V6 Open ‚ãÖ Closes 6‚ÄØam Sat Open ‚ãÖ Closes 6‚ÄØam Sat Open ‚ãÖ Closes 6‚ÄØam Sat",
    "phone": "",
    "website": "",
    "rating": "3.1",
    "reviewCount": "7",
    "hours": "",
    "type": "",
    "bookingLink": "",
    "reviewSnippet": "\"I like it but the parking is not much\"",
    "link": "https://www.google.com/maps/place/Taured/data=!4m7!3m6!1s0x391963037ac81621:0xeddd64873575f26b!8m2!3d31.6654154!4d74.929627!16s%2Fg%2F11h4pl1wm3!19sChIJIRbIegNjGTkRa_J1NYdk3e0?authuser=0&hl=en&rclk=1"
  },
  {
    "name": "ORANE SALON N SPA (Namita Makeovers)",
    "address": "(131) Beauty Parlour Beauty Parlour Business square Mall ,Mall Road, Mall Rd, adjoining Irish Beach cafe",
    "phone": "098555 88833",
    "website": "http://namitamakeoversoranesalonspa.com/?utm_source=gmb&utm_medium=referral",
    "rating": "4.3",
    "reviewCount": "131",
    "hours": "Closed ‚ãÖ Opens 10‚ÄØam Sat",
    "type": "",
    "bookingLink": "",
    "reviewSnippet": "\"I got my hair cut from Bunty today, he is very polite and did best haircut.\"",
    "link": "https://www.google.com/maps/place/ORANE+SALON+N+SPA+%28Namita+Makeovers%29/data=!4m7!3m6!1s0x391964a364ad8605:0x59c814fee8fde387!8m2!3d31.6427456!4d74.8626605!16s%2Fg%2F11c594wl_1!19sChIJBYatZKNkGTkRh-P96P4UyFk?authuser=0&hl=en&rclk=1"
  },
  {
    "name": "Khan Saloon",
    "address": "No reviews Hair salon Hair salon Verka Bazar Main",
    "phone": "072174 91412",
    "website": "",
    "rating": "",
    "reviewCount": "",
    "hours": "",
    "type": "",
    "bookingLink": "",
    "reviewSnippet": "",
    "link": "https://www.google.com/maps/place/Khan+Saloon/data=!4m7!3m6!1s0x391965da3f0b267b:0x56fa9377476d5f26!8m2!3d31.6290524!4d74.8467081!16s%2Fg%2F11w8l24p4y!19sChIJeyYLP9plGTkRJl9tR3eT-lY?authuser=0&hl=en&rclk=1"
  },
  {
    "name": "Glamour emporium unisex salon&academy",
    "address": "(23) Hairdresser Hairdresser puda office, 8c",
    "phone": "074859 92125",
    "website": "",
    "rating": "5.0",
    "reviewCount": "23",
    "hours": "Closed ‚ãÖ Opens 9‚ÄØam Sat",
    "type": "",
    "bookingLink": "",
    "reviewSnippet": "\"It is the best",
    "link": "https://www.google.com/maps/place/Glamour+emporium+unisex+salon%26academy/data=!4m7!3m6!1s0x391965a72a4401bd:0xcef10d4ac527df29!8m2!3d31.6507291!4d74.8665592!16s%2Fg%2F11y370mgs6!19sChIJvQFEKqdlGTkRKd8nxUoN8c4?authuser=0&hl=en&rclk=1"
  },
  {
    "name": "Hair Makeup Lounge",
    "address": "(15) Beauty Parlour Beauty Parlour Shop Number 17/1, Main Market",
    "phone": "099882 20186",
    "website": "",
    "rating": "4.7",
    "reviewCount": "15",
    "hours": "Closed ‚ãÖ Opens 10‚ÄØam Sat",
    "type": "",
    "bookingLink": "",
    "reviewSnippet": "\"One of d best makeup, hairstyling and all other services.\"",
    "link": "https://www.google.com/maps/place/Hair+Makeup+Lounge/data=!4m7!3m6!1s0x391965f6251a0a0f:0x25645aae56baef80!8m2!3d31.6415691!4d74.8664615!16s%2Fg%2F11rhylfkh1!19sChIJDwoaJfZlGTkRgO-6Vq5aZCU?authuser=0&hl=en&rclk=1"
  },
  {
    "name": "Color Carnival Salon & Academy",
    "address": "(9) Hair salon Hair salon A-402",
    "phone": "078884 75793",
    "website": "",
    "rating": "5.0",
    "reviewCount": "9",
    "hours": "Closed ‚ãÖ Opens 10‚ÄØam Sat",
    "type": "",
    "bookingLink": "",
    "reviewSnippet": "\"Ambience is great all the services is very good prices are also reasonable\"",
    "link": "https://www.google.com/maps/place/Color+Carnival+Salon+%26+Academy/data=!4m7!3m6!1s0x39196500138785c7:0x372271ad69f6c3ef!8m2!3d31.6395988!4d74.8588378!16s%2Fg%2F11y4hbjsdj!19sChIJx4WHEwBlGTkR78P2aa1xIjc?authuser=0&hl=en&rclk=1"
  },
  {
    "name": "Dudes & Divas",
    "address": "(13) Beauty Parlour Beauty Parlour 22, Shivaji Park Rd, opposite jagah Jyoti School",
    "phone": "",
    "website": "",
    "rating": "4.8",
    "reviewCount": "13",
    "hours": "Closed ‚ãÖ Opens 9‚ÄØam Sat",
    "type": "",
    "bookingLink": "",
    "reviewSnippet": "\"Great services and a must visit place to get salon services done\"",
    "link": "https://www.google.com/maps/place/Dudes+%26+Divas/data=!4m7!3m6!1s0x3919650d6a4a1af3:0x14029a40d8e9a15f!8m2!3d31.6397481!4d74.8600448!16s%2Fg%2F11kc0gkr87!19sChIJ8xpKag1lGTkRX6Hp2ECaAhQ?authuser=0&hl=en&rclk=1"
  },
  {
    "name": "The ODEL UNISEX SALON by rakesh",
    "address": "(127) Hair salon Hair salon SCO 122, The Odel Unisex Salon by Rakesh, Sardar Tawar, market, New Pizzeria Line",
    "phone": "095016 06604",
    "website": "",
    "rating": "4.9",
    "reviewCount": "127",
    "hours": "Closed ‚ãÖ Opens 9‚ÄØam Sat",
    "type": "",
    "bookingLink": "",
    "reviewSnippet": "\"Best saloon in amritsar the staff the owner ambience\"",
    "link": "https://www.google.com/maps/place/The+ODEL+UNISEX+SALON+by+rakesh/data=!4m7!3m6!1s0x391965d561f9418f:0xec42e35f6c90aa30!8m2!3d31.6563223!4d74.8543948!16s%2Fg%2F11kj3p3jhk!19sChIJj0H5YdVlGTkRMKqQbF_jQuw?authuser=0&hl=en&rclk=1"
  },
  {
    "name": "Taksh Salon",
    "address": "(31) Beauty Parlour Beauty Parlour Building No, 48-A, Shivaji Park Rd",
    "phone": "090568 45041",
    "website": "",
    "rating": "5.0",
    "reviewCount": "31",
    "hours": "Closed ‚ãÖ Opens 10:30‚ÄØam Sat",
    "type": "",
    "bookingLink": "",
    "reviewSnippet": "\"Beautiful ambience, professional staff\"",
    "link": "https://www.google.com/maps/place/Taksh+Salon/data=!4m7!3m6!1s0x39196577a05809e1:0x64938baaa45574ee!8m2!3d31.6381879!4d74.8616445!16s%2Fg%2F11nmzcbxzt!19sChIJ4QlYoHdlGTkR7nRVpKqLk2Q?authuser=0&hl=en&rclk=1"
  },
  {
    "name": "Timeless Aesthetics - Permanent Makeup Clinic amritsar",
    "address": "(110) Make-up artist Make-up artist 1st Floor, Business Square, 4, Mall Rd",
    "phone": "096540 09966",
    "website": "http://www.timelessaesthetics.in/",
    "rating": "4.9",
    "reviewCount": "110",
    "hours": "Closed ‚ãÖ Opens 10:30‚ÄØam Sat",
    "type": "",
    "bookingLink": "https://www.practo.com/amritsar/clinic/timeless-aesthetics-lawrence-road/doctors?utm_source=google&utm_medium=reserve_with_google&utm_campaign=establishment_feed&hl=en-IN&gei=8YR6aMHLHvbj4-EPu82l8QY&rwg_token=ACgRB3exp6axM0At5O9IDmArFrB93JK9Fxx7dkgJ0RgcOUZTrLmO0rLrlpJnHH7n_NpBFnWKQYJIf1HzhFywzTlJbX4zspsWVw%3D%3D",
    "reviewSnippet": "\"Excellent experience\nThey have given the perfect shape to my brows.\"",
    "link": "https://www.google.com/maps/place/Timeless+Aesthetics+-+Permanent+Makeup+Clinic+amritsar/data=!4m7!3m6!1s0x3919659f7c940bd3:0xa4ef4029721913!8m2!3d31.642933!4d74.8617164!16s%2Fg%2F11fmsc_xhh!19sChIJ0wuUfJ9lGTkRExlyKUDvpAA?authuser=0&hl=en&rclk=1"
  },
  {
    "name": "Janvi Beauty Parlour",
    "address": "(2) Beauty Parlour Beauty Parlour",
    "phone": "097805 12055",
    "website": "",
    "rating": "5.0",
    "reviewCount": "2",
    "hours": "",
    "type": "",
    "bookingLink": "",
    "reviewSnippet": "",
    "link": "https://www.google.com/maps/place/Janvi+Beauty+Parlour/data=!4m7!3m6!1s0x391962e5fef9d71f:0x52185f10a8678f01!8m2!3d31.6632277!4d74.932341!16s%2Fg%2F11sc26h27x!19sChIJH9f5_uViGTkRAY9nqBBfGFI?authuser=0&hl=en&rclk=1"
  },
  {
    "name": "Brightness Studio Rani Ka Bagh",
    "address": "(52) Beauty Parlour Beauty Parlour 182-B, First Floor",
    "phone": "084376 73203",
    "website": "",
    "rating": "4.8",
    "reviewCount": "52",
    "hours": "Closed ‚ãÖ Opens 10‚ÄØam Sat",
    "type": "",
    "bookingLink": "",
    "reviewSnippet": "\"Great hair colour, fantastic services, love the atmosphere\"",
    "link": "https://www.google.com/maps/place/Brightness+Studio+Rani+Ka+Bagh/data=!4m7!3m6!1s0x39196519cb65531d:0x1e3b35d13af9d69e!8m2!3d31.6359974!4d74.8589216!16s%2Fg%2F11h9ljz3jj!19sChIJHVNlyxllGTkRntb5OtE1Ox4?authuser=0&hl=en&rclk=1"
  },
  {
    "name": "Touch N Glow Beauty Lounge",
    "address": "(22) Beauty Parlour Beauty Parlour 30-A, Shivaji Park Rd, near Arches Gallery",
    "phone": "099153 36539",
    "website": "",
    "rating": "4.4",
    "reviewCount": "22",
    "hours": "Closed ‚ãÖ Opens 11‚ÄØam Sat",
    "type": "",
    "bookingLink": "",
    "reviewSnippet": "\"Beautiful place for beautiful ladies\"",
    "link": "https://www.google.com/maps/place/Touch+N+Glow+Beauty+Lounge/data=!4m7!3m6!1s0x391964baa49ee393:0xcf956c93006a10a9!8m2!3d31.6393115!4d74.8607035!16s%2Fg%2F11c5svrk5p!19sChIJk-OepLpkGTkRqRBqAJNslc8?authuser=0&hl=en&rclk=1"
  },
  {
    "name": "Stunning face salon",
    "address": "(31) Beauty Parlour Beauty Parlour 2655, Lane no. 1, shimla market",
    "phone": "097800 80581",
    "website": "",
    "rating": "5.0",
    "reviewCount": "31",
    "hours": "Closed ‚ãÖ Opens 10‚ÄØam Sat",
    "type": "",
    "bookingLink": "",
    "reviewSnippet": "\"Very good hair services\"",
    "link": "https://www.google.com/maps/place/Stunning+face+salon/data=!4m7!3m6!1s0x3919650c7c8044d5:0x3edefbd57747c891!8m2!3d31.6341318!4d74.8473103!16s%2Fg%2F11s05bcf2g!19sChIJ1USAfAxlGTkRkchHd9X73j4?authuser=0&hl=en&rclk=1"
  },
  {
    "name": "Cute Salon & Spa - Best Salon in White Avenue Amritsar| Best Bridal Salon in White Avenue Amritsar",
    "address": "(88) Beauty Parlour Beauty Parlour 43 c, RB Parkash Chand Rd, opp. Police Line Road",
    "phone": "0183 222 9729",
    "website": "",
    "rating": "3.5",
    "reviewCount": "88",
    "hours": "Closed ‚ãÖ Opens 10‚ÄØam Sat",
    "type": "",
    "bookingLink": "",
    "reviewSnippet": "\"Nice atmosphere n good services for females\"",
    "link": "https://www.google.com/maps/place/Cute+Salon+%26+Spa+-+Best+Salon+in+White+Avenue+Amritsar%7C+Best+Bridal+Salon+in+White+Avenue+Amritsar/data=!4m7!3m6!1s0x391964a0c50e9e47:0xb47a9d56da6e266e!8m2!3d31.645442!4d74.8720649!16s%2Fg%2F11b6bwvw5d!19sChIJR54OxaBkGTkRbiZu2laderQ?authuser=0&hl=en&rclk=1"
  },
  {
    "name": "Nagi Salon",
    "address": "(58) Beauty Parlour Beauty Parlour 67-A,Main Market, Kennedy Avenue",
    "phone": "098762 40966",
    "website": "",
    "rating": "4.2",
    "reviewCount": "58",
    "hours": "Closed ‚ãÖ Opens 9‚ÄØam Sat",
    "type": "",
    "bookingLink": "",
    "reviewSnippet": "\"A good place for cutting and aaloo\"",
    "link": "https://www.google.com/maps/place/Nagi+Salon/data=!4m7!3m6!1s0x391964a44e7a4f9f:0x649fd0bfe06de73e!8m2!3d31.641666!4d74.866239!16s%2Fg%2F11b6d93dyy!19sChIJn096TqRkGTkRPudt4L_Qn2Q?authuser=0&hl=en&rclk=1"
  },
  {
    "name": "Shivani's She and She",
    "address": "(168) Beauty Parlour Beauty Parlour Parvati Devi Hospital 196, B/s",
    "phone": "092165 34552",
    "website": "https://www.facebook.com/Shivani-She-She-Beauty-Parlour-1899233130358802/",
    "rating": "4.4",
    "reviewCount": "168",
    "hours": "Closed ‚ãÖ Opens 10‚ÄØam Sat",
    "type": "",
    "bookingLink": "",
    "reviewSnippet": "\"They provide the best services with a soothing and relaxing atmosphere.\"",
    "link": "https://www.google.com/maps/place/Shivani%27s+She+and+She/data=!4m7!3m6!1s0x39196491a7b5763f:0x2569b4f86d8f7d57!8m2!3d31.6480162!4d74.8562979!16s%2Fg%2F11dxkc41qw!19sChIJP3a1p5FkGTkRV32Pbfi0aSU?authuser=0&hl=en&rclk=1"
  },
  {
    "name": "Rex Beauty Parlour",
    "address": "(33) Beauty Parlour Beauty Parlour 57 Majitha House, Albert Rd",
    "phone": "080540 77967",
    "website": "",
    "rating": "4.6",
    "reviewCount": "33",
    "hours": "Closed ‚ãÖ Opens 10‚ÄØam Sat",
    "type": "",
    "bookingLink": "",
    "reviewSnippet": "\"The hairstyle looked very nice\"",
    "link": "https://www.google.com/maps/place/Rex+Beauty+Parlour/data=!4m7!3m6!1s0x3919654b7bd1ab1d:0x273d59d1ba8775e0!8m2!3d31.6362695!4d74.8643504!16s%2Fg%2F11rcvc2qx_!19sChIJHavRe0tlGTkR4HWHutFZPSc?authuser=0&hl=en&rclk=1"
  },
  {
    "name": "Reviva's Salon",
    "address": "(13) Beauty Parlour Beauty Parlour # 24 Green Avenue, Temple Lane, Maqbool Rd, near Krishan Dham Mandir",
    "phone": "089689 72759",
    "website": "https://www.facebook.com/revivassalon/",
    "rating": "5.0",
    "reviewCount": "13",
    "hours": "Closed ‚ãÖ Opens 10:30‚ÄØam Sat",
    "type": "",
    "bookingLink": "",
    "reviewSnippet": "",
    "link": "https://www.google.com/maps/place/Reviva%27s+Salon/data=!4m7!3m6!1s0x39197ccfd9a0be7d:0x34eecf03efdf5691!8m2!3d31.6495839!4d74.8685513!16s%2Fg%2F11gf10t_k0!19sChIJfb6g2c98GTkRkVbf7wPP7jQ?authuser=0&hl=en&rclk=1"
  },
  {
    "name": "Femina Flaunt Academy",
    "address": "(85) Beauty Parlour Beauty Parlour 3rd Floor, KK Towers, SCO 31, Ranjit Ave",
    "phone": "090560 05655",
    "website": "https://feminaflaunt.com/pages/academy-page",
    "rating": "5.0",
    "reviewCount": "85",
    "hours": "Closed ‚ãÖ Opens 9‚ÄØam Sat",
    "type": "",
    "bookingLink": "",
    "reviewSnippet": "\"Got nail art done here and wow!\"",
    "link": "https://www.google.com/maps/place/Femina+Flaunt+Academy/data=!4m7!3m6!1s0x391965b7341d3c8f:0x9e93582aeabe07a9!8m2!3d31.6505512!4d74.8644632!16s%2Fg%2F11vj7qwnhq!19sChIJjzwdNLdlGTkRqQe-6ipYk54?authuser=0&hl=en&rclk=1"
  },
  {
    "name": "Graduate Beauty Salon - Best HD Makeup in Ranjit Avenue| Best Skin & Hair Salon| Best Nail Salon in Ranjit Avenue Amritsar",
    "address": "(57) Beauty Parlour Beauty Parlour Booth no,75,76,78,A-Block Market , Ranjit Avenue",
    "phone": "079869 85980",
    "website": "",
    "rating": "4.1",
    "reviewCount": "57",
    "hours": "Closed ‚ãÖ Opens 9‚ÄØam Sat",
    "type": "",
    "bookingLink": "",
    "reviewSnippet": "\"Fit for hair cuts and allied services\"",
    "link": "https://www.google.com/maps/place/Graduate+Beauty+Salon+-+Best+HD+Makeup+in+Ranjit+Avenue%7C+Best+Skin+%26+Hair+Salon%7C+Best+Nail+Salon+in+Ranjit+Avenue+Amritsar/data=!4m7!3m6!1s0x3919649614fd09c3:0x114fc0b6e3f56077!8m2!3d31.6496764!4d74.8580801!16s%2Fg%2F11btlx_l9y!19sChIJwwn9FJZkGTkRd2D147bATxE?authuser=0&hl=en&rclk=1"
  },
  {
    "name": "Chohan Salon And Spa",
    "address": "(56) Beauty Parlour Beauty Parlour Shop No. 1A Head Water Works Road Golden Avenue Open 24 hours Open 24 hours Open 24 hours",
    "phone": "098154 41006",
    "website": "",
    "rating": "4.0",
    "reviewCount": "56",
    "hours": "",
    "type": "",
    "bookingLink": "",
    "reviewSnippet": "\"Simple natural looking make up like I like it\"",
    "link": "https://www.google.com/maps/place/Chohan+Salon+And+Spa/data=!4m7!3m6!1s0x39197cb4c65b3305:0xf095023dbff7ba34!8m2!3d31.6293746!4d74.8928209!16s%2Fg%2F11b6gf7bks!19sChIJBTNbxrR8GTkRNLr3vz0ClfA?authuser=0&hl=en&rclk=1"
  },
  {
    "name": "The Jawed Habib Salon",
    "address": "(92) Beauty Parlour Beauty Parlour Sco 86, 1st Floor, Meher Towers, B block Road",
    "phone": "",
    "website": "",
    "rating": "4.6",
    "reviewCount": "92",
    "hours": "Closed ‚ãÖ Opens 10‚ÄØam Sat",
    "type": "",
    "bookingLink": "",
    "reviewSnippet": "\"Excellent service of haircut keratin treatment very good staff thanks.\"",
    "link": "https://www.google.com/maps/place/The+Jawed+Habib+Salon/data=!4m7!3m6!1s0x3919657a8e85f639:0x980fe29c28a23f53!8m2!3d31.6566985!4d74.8595416!16s%2Fg%2F11rcn6fzfc!19sChIJOfaFjnplGTkRUz-iKJziD5g?authuser=0&hl=en&rclk=1"
  },
  {
    "name": "Senora Salon",
    "address": "(28) Beauty Parlour Beauty Parlour MV2C+2R7",
    "phone": "098888 57761",
    "website": "http://www.senorasalon.com/",
    "rating": "4.5",
    "reviewCount": "28",
    "hours": "Closed ‚ãÖ Opens 10:30‚ÄØam Sat",
    "type": "",
    "bookingLink": "",
    "reviewSnippet": "\"A well planned salon with all amenities and updated services.\"",
    "link": "https://www.google.com/maps/place/Senora+Salon/data=!4m7!3m6!1s0x391964a027ee9061:0x823180cdbe4e5b07!8m2!3d31.6500394!4d74.8720444!16s%2Fg%2F11b6c65p7g!19sChIJYZDuJ6BkGTkRB1tOvs2AMYI?authuser=0&hl=en&rclk=1"
  }
]