[
  {
    "name": "Headmasters Batala | Best Beauty Salon In Batala | Best Makeup Artist In Batala",
    "address": "(1,392) Beauty Parlour Beauty Parlour Qadian Rd, opposite Bajwa Hospital",
    "phone": "098150 47077",
    "website": "https://headmasters.in/salon/best-salon-in-batala-headmasters/",
    "rating": "4.8",
    "reviewCount": "1,392",
    "hours": "Closed ⋅ Opens 10 am Sat",
    "type": "",
    "bookingLink": "",
    "reviewSnippet": "\"Wonderful staff … did my hairdo very quickly and made me look very ...\"",
    "link": "https://www.google.com/maps/place/Headmasters+Batala+%7C+Best+Beauty+Salon+In+Batala+%7C+Best+Makeup+Artist+In+Batala/data=!4m7!3m6!1s0x391bc3de78adebf5:0x2e0dd5c649167a17!8m2!3d31.8125569!4d75.2254122!16s%2Fg%2F11rw8_k32d!19sChIJ9euteN7DGzkRF3oWScbVDS4?authuser=0&hl=en&rclk=1"
  },
  {
    "name": "Lakme Salon",
    "address": "(1,610) Beauty Parlour Beauty Parlour 23/500, Jalandhar Rd, beside IDBI Bank",
    "phone": "099887 40047",
    "website": "https://salons.lakmesalon.in/lakme-salon-batala-beauty-parlour-shastri-nagar-batala-349813/Home?utm_source=locator&utm_medium=googleplaces",
    "rating": "4.8",
    "reviewCount": "1,610",
    "hours": "Closed ⋅ Opens 10 am Sat",
    "type": "",
    "bookingLink": "",
    "reviewSnippet": "\"This is the only salon that I trust properly to deal with my hair.\"",
    "link": "https://www.google.com/maps/place/Lakme+Salon/data=!4m7!3m6!1s0x391bc25ec2182d79:0x9b2c3b47c719b920!8m2!3d31.8194412!4d75.2049344!16s%2Fg%2F1q2v_c86q!19sChIJeS0Ywl7CGzkRILkZx0c7LJs?authuser=0&hl=en&rclk=1"
  },
  {
    "name": "Beauty Bird Saloon",
    "address": "(270) Beauty Parlour Beauty Parlour Shop no 2, Krishna Market, Cinema Rd",
    "phone": "",
    "website": "",
    "rating": "5.0",
    "reviewCount": "270",
    "hours": "Closed ⋅ Opens 10 am Sat",
    "type": "",
    "bookingLink": "",
    "reviewSnippet": "\"I love this salon ......and it's best service is\"",
    "link": "https://www.google.com/maps/place/Beauty+Bird+Saloon/data=!4m7!3m6!1s0x391bc35fdab0f4ab:0xd98e2061f12408e2!8m2!3d31.8149461!4d75.2022082!16s%2Fg%2F11rmxgmft0!19sChIJq_Sw2l_DGzkR4ggk8WEgjtk?authuser=0&hl=en&rclk=1"
  },
  {
    "name": "NK Makeovers",
    "address": "(310) Beauty Parlour Beauty Parlour Tent House, Chachowalia, GT Rd",
    "phone": "098555 55598",
    "website": "https://www.facebook.com/NKmakeovers/",
    "rating": "4.8",
    "reviewCount": "310",
    "hours": "Closed ⋅ Opens 10 am Sat",
    "type": "",
    "bookingLink": "",
    "reviewSnippet": "\"Super happy with my hair colouring and nails done today.\"",
    "link": "https://www.google.com/maps/place/NK+Makeovers/data=!4m7!3m6!1s0x391bc3695f6c1cb3:0xd51bfae04ad136b1!8m2!3d31.8276221!4d75.2099563!16s%2Fg%2F11h1vdl256!19sChIJsxxsX2nDGzkRsTbRSuD6G9U?authuser=0&hl=en&rclk=1"
  },
  {
    "name": "Hair Lounge Batala unisex beauty salon",
    "address": "(64) Beauty Parlour Beauty Parlour Qadian Rd, near Bhagya Bakery, opposite Urban Estate",
    "phone": "089685 89020",
    "website": "",
    "rating": "4.8",
    "reviewCount": "64",
    "hours": "Closed ⋅ Opens 9:30 am Sat",
    "type": "",
    "bookingLink": "",
    "reviewSnippet": "\"I did my facial, wax n hair Color there .\"",
    "link": "https://www.google.com/maps/place/Hair+Lounge+Batala+unisex+beauty+salon/data=!4m7!3m6!1s0x391bc34bb052e97b:0xc584f759de5709b4!8m2!3d31.8104749!4d75.222935!16s%2Fg%2F11qpx7hx36!19sChIJe-lSsEvDGzkRtAlX3ln3hMU?authuser=0&hl=en&rclk=1"
  }
]